City_ID,City,Lat,Lng,Max Temp,Humidity,Cloudiness,Wind Speed,Country,Date
0,al hamul,31.3115,31.1477,26.78,36,72,0.95,EG,1716096569
1,ushuaia,-54.8,-68.3,1.81,80,0,2.57,AR,1716096569
2,edinburgh of the seven seas,-37.0676,-12.3116,13.82,78,95,3.51,SH,1716096570
3,cadale,2.7603,46.3222,28.97,75,14,8.66,SO,1716096570
4,ola,59.5833,151.2833,12.3,60,99,12.6,RU,1716096570
5,pelabuhanratu,-6.9875,106.5514,30.59,68,69,1.8,ID,1716096570
6,margaret river,-33.95,115.0667,20.78,47,100,6.02,AU,1716096570
7,blackmans bay,-43.0167,147.3167,13.62,63,94,0.45,AU,1716096570
8,hohhot,40.8106,111.6522,28.16,16,0,2.0,CN,1716096570
9,ust-nera,64.5667,143.2,4.97,99,100,2.41,RU,1716096571
10,adamstown,-25.066,-130.1015,21.52,73,98,10.63,PN,1716096571
11,kattivakkam,13.2167,80.3167,33.05,78,65,2.88,IN,1716096571
12,college,64.8569,-147.8028,17.82,42,40,4.12,US,1716096571
13,mata-utu,-13.2816,-176.1745,29.36,80,44,6.26,WF,1716096571
14,san patricio,28.017,-97.5169,27.69,91,0,4.51,US,1716096571
15,dampit,-8.2116,112.7493,29.71,56,89,3.36,ID,1716096572
16,puerto natales,-51.7236,-72.4875,0.93,95,100,1.15,CL,1716096572
17,waitangi,-43.9535,-176.5597,12.68,92,100,0.45,NZ,1716096572
18,east london,-33.0153,27.9116,10.52,100,0,2.06,ZA,1716096572
19,ribeira grande,38.5167,-28.7,15.43,82,84,1.79,PT,1716096572
20,wanning,18.8003,110.3967,32.01,65,99,6.3,CN,1716096572
21,fortaleza,-3.7227,-38.5247,26.23,89,0,2.06,BR,1716096446
22,grytviken,-54.2811,-36.5092,-1.7,82,15,6.39,GS,1716096573
23,olonkinbyen,70.9221,-8.7187,-3.31,62,78,6.28,SJ,1716096573
24,leava,-14.3,-178.1667,28.69,83,38,6.29,WF,1716096573
25,el bauga,18.262,33.9081,33.88,14,1,4.54,SD,1716096573
26,quellon,-43.1167,-73.6167,9.27,83,96,7.0,CL,1716096573
27,malvan,16.0667,73.4667,30.88,69,95,4.92,IN,1716096573
28,yellowknife,62.456,-114.3525,8.29,77,100,4.63,CA,1716096573
29,antsiranana,-12.2787,49.2917,27.42,74,40,6.17,MG,1716096574
30,fortuna,40.5982,-124.1573,10.52,90,75,4.12,US,1716096574
31,port-aux-francais,-49.35,70.2167,2.86,68,96,17.14,TF,1716096574
32,wailua homesteads,22.0669,-159.378,26.24,89,75,6.17,US,1716096574
33,massaguet,12.4755,15.4365,28.34,10,16,3.47,TD,1716096574
34,west island,-12.1568,96.8225,29.99,79,40,6.69,CC,1716096575
35,isafjordur,66.0755,-23.124,-1.75,66,95,4.05,IS,1716096575
36,rongelap,11.1635,166.8941,27.25,85,100,10.04,MH,1716096575
37,jamestown,42.097,-79.2353,14.8,98,0,0.89,US,1716096575
38,klyuchi,52.2667,79.1667,18.76,65,99,3.15,RU,1716096575
39,khairpur,27.5295,68.7617,37.0,9,19,4.38,PK,1716096575
40,medicine hat,50.0501,-110.6683,9.56,65,75,2.57,CA,1716096554
41,black river,18.0264,-77.8487,26.08,82,0,1.04,JM,1716096576
42,thompson,55.7435,-97.8558,4.09,93,100,7.72,CA,1716096576
43,tsiombe,-25.3,45.4833,21.13,81,26,3.99,MG,1716096576
44,hawaiian paradise park,19.5933,-154.9731,23.73,89,100,2.06,US,1716096576
45,qaqortoq,60.7167,-46.0333,0.8,77,100,1.87,GL,1716096576
46,stanley,54.868,-1.6985,9.77,94,100,2.57,GB,1716096576
47,kone,-21.0595,164.8658,25.75,68,75,3.13,NC,1716096576
48,s'arenal,39.5,2.75,16.4,89,16,2.44,ES,1716096577
49,ilulissat,69.2167,-51.1,-3.99,68,22,2.57,GL,1716096577
50,banff,51.1762,-115.5698,2.57,87,99,5.66,CA,1716096577
51,srbica,42.7467,20.7886,16.62,97,100,1.9,XK,1716096577
52,aldinga beach,-35.2793,138.4604,15.98,58,100,5.37,AU,1716096578
53,puerto ayora,-0.7393,-90.3518,22.53,100,6,1.34,EC,1716096578
54,basoda,23.85,77.9333,39.81,19,5,6.21,IN,1716096578
55,issoire,45.55,3.25,8.59,93,19,1.73,FR,1716096578
56,albany,42.6001,-73.9662,15.4,80,12,1.49,US,1716096578
57,bethel,41.3712,-73.414,15.01,83,100,0.45,US,1716096107
58,la passe,45.5549,-0.8967,11.12,86,44,0.86,FR,1716096578
59,papatowai,-46.5619,169.4708,5.44,79,30,0.99,NZ,1716096579
60,invercargill,-46.4,168.35,6.68,74,96,0.85,NZ,1716096579
61,ussuriysk,43.7986,131.9508,15.9,89,100,2.78,RU,1716096579
62,lihue,21.9789,-159.3672,26.58,87,75,6.17,US,1716096579
63,avarua,-21.2078,-159.775,23.03,88,75,2.57,CK,1716096579
64,bilibino,68.0546,166.4372,-0.25,67,8,1.47,RU,1716096579
65,la ronge,55.1001,-105.2842,7.14,93,100,4.63,CA,1716096579
66,tazovsky,67.4667,78.7,-7.64,91,74,3.31,RU,1716096580
67,samarinda,-0.5,117.15,30.81,69,56,1.78,ID,1716096580
68,egilsstadir,65.2653,-14.3948,-2.05,80,75,0.51,IS,1716096580
69,mikhnevo,55.1272,37.9522,14.53,63,3,2.68,RU,1716096580
70,port mathurin,-19.6833,63.4167,25.18,57,98,4.56,MU,1716096580
71,enewetak,11.3474,162.3373,27.4,82,99,10.56,MH,1716096580
72,constantia,44.1833,28.65,14.38,77,92,4.2,RO,1716096581
73,carnarvon,-24.8667,113.6333,28.33,30,0,5.69,AU,1716096581
74,dolores,-36.3132,-57.6792,8.04,66,100,0.7,AR,1716096581
75,vilyuchinsk,52.9306,158.4028,6.07,97,100,4.13,RU,1716096581
76,iqaluit,63.7506,-68.5145,-11.77,86,5,2.61,CA,1716096581
77,kalanaur,28.8333,76.4,42.52,10,0,2.59,IN,1716096581
78,patnanungan,14.7833,122.1833,30.91,63,48,1.76,PH,1716096582
79,yavas,54.4159,42.8491,12.32,54,7,1.97,RU,1716096582
80,vadso,70.0744,29.7487,4.09,60,75,0.51,NO,1716096582
81,vila do maio,15.1333,-23.2167,23.44,80,41,7.07,CV,1716096582
82,san rafael,-34.6177,-68.3301,7.14,57,53,2.33,AR,1716096582
83,okhotsk,59.3833,143.3,4.23,95,100,4.07,RU,1716096582
84,anadyr,64.75,177.4833,0.28,86,75,5.0,RU,1716096582
85,aswan,24.0934,32.907,26.61,14,0,2.06,EG,1716096583
86,ketchikan,55.3422,-131.6461,11.26,62,75,3.09,US,1716096464
87,gimbi,9.1667,35.8333,16.13,89,98,0.75,ET,1716096583
88,naze,28.3667,129.4833,24.51,83,46,7.72,JP,1716096583
89,ulladulla,-35.35,150.4667,14.87,49,13,1.81,AU,1716096583
90,santa rosalia,27.3167,-112.2833,26.17,30,0,2.97,MX,1716096584
91,labytnangi,66.6572,66.4183,-2.57,95,100,5.71,RU,1716096584
92,sao joao da barra,-21.6403,-41.0511,22.02,95,25,4.11,BR,1716096584
93,nalut,30.3333,10.85,27.17,37,58,6.74,LY,1716096584
94,quatre cocos,-20.2078,57.7625,26.16,68,89,4.19,MU,1716096584
95,rabo de peixe,37.8,-25.5833,17.77,99,75,2.06,PT,1716096584
96,rundu,-17.9333,19.7667,9.98,28,0,2.68,NA,1716096584
97,smithers,54.7804,-127.1743,9.18,46,0,2.57,CA,1716096304
98,mana,5.6592,-53.7767,24.96,93,100,4.28,GF,1716096585
99,roxas,11.5853,122.7511,31.19,65,90,4.82,PH,1716096585
100,pisco,-13.7,-76.2167,18.03,88,14,0.51,PE,1716096585
101,afaahiti,-17.75,-149.2833,24.93,78,100,9.99,PF,1716096585
102,atafu village,-8.5421,-172.5159,29.8,77,83,7.21,TK,1716096585
103,sassandra,4.95,-6.0833,25.89,90,99,2.4,CI,1716096585
104,motygino,58.1831,94.7592,19.32,40,25,3.13,RU,1716096586
105,revda,56.801,59.9303,6.09,56,50,4.77,RU,1716096586
106,ban phru nai,7.9333,98.5833,35.11,70,99,1.8,TH,1716096586
107,longyearbyen,78.2186,15.6401,-5.09,63,75,4.63,SJ,1716096586
108,garbahaarrey,3.3289,42.2209,27.45,64,46,9.44,SO,1716096586
109,chonchi,-42.6128,-73.8092,7.56,87,93,2.28,CL,1716096586
110,kailua-kona,19.6406,-155.9956,25.98,94,100,7.2,US,1716096586
111,midvagur,62.0511,-7.1939,6.46,81,100,4.12,FO,1716096587
112,contai,21.7786,87.7536,35.53,42,95,5.65,IN,1716096587
113,mount isa,-20.7333,139.5,24.87,22,17,5.66,AU,1716096587
114,kizhinga,51.8462,109.9097,21.36,20,61,4.41,RU,1716096587
115,ghadamis,30.1337,9.5007,30.77,26,25,5.25,LY,1716096587
116,kuraymah,18.55,31.85,32.65,8,0,5.34,SD,1716096587
117,toliara,-23.35,43.6667,21.92,75,6,6.36,MG,1716096570
118,uturoa,-16.7333,-151.4333,26.93,73,100,10.22,PF,1716096588
119,waddan,29.1614,16.139,30.43,13,2,4.15,LY,1716096588
120,lesosibirsk,58.2358,92.4828,17.73,42,50,2.85,RU,1716096588
121,arraial do cabo,-22.9661,-42.0278,23.07,94,26,3.4,BR,1716096588
122,codrington,-38.2667,141.9667,14.4,76,86,7.56,AU,1716096588
123,talnakh,69.4865,88.3972,-8.77,89,97,3.65,RU,1716096588
124,beloyarskiy,63.7119,66.6722,0.0,82,91,3.13,RU,1716096588
125,nova sintra,14.8667,-24.7167,24.1,76,36,6.59,CV,1716096589
126,whitehorse,60.7161,-135.0538,11.01,50,100,0.89,CA,1716096470
127,christchurch,-43.5333,172.6333,11.06,88,100,0.89,NZ,1716096578
128,georgetown,5.4112,100.3354,32.97,55,20,5.66,MY,1716096390
129,zouerate,22.7187,-12.4521,20.52,50,2,3.81,MR,1716096589
130,lae,-6.7221,146.9847,30.37,72,48,2.96,PG,1716096589
131,hermanus,-34.4187,19.2345,11.56,80,95,1.76,ZA,1716096589
132,huarmey,-10.0681,-78.1522,18.97,91,90,3.56,PE,1716096589
133,broome,42.2506,-75.833,17.06,96,100,1.54,US,1716096590
134,sangueya,10.7,-14.3667,26.16,83,99,0.86,GN,1716096590
135,fale old settlement,-9.3852,-171.2468,29.6,80,76,8.81,TK,1716096590
136,port lincoln,-34.7333,135.8667,15.07,64,84,4.8,AU,1716096590
137,laurel,39.0993,-76.8483,17.14,95,100,0.0,US,1716096590
138,sandnessjoen,66.0217,12.6316,7.29,81,100,8.66,NO,1716096590
139,sisimiut,66.9395,-53.6735,-5.07,78,16,3.86,GL,1716096591
140,north platte,41.1239,-100.7654,17.29,60,0,5.36,US,1716096591
141,marsabit,2.3284,37.9899,19.71,74,83,6.28,KE,1716096591
142,port elizabeth,-33.918,25.5701,9.16,100,0,1.54,ZA,1716096591
143,luwingu,-10.2621,29.9271,14.45,83,35,1.49,ZM,1716096591
144,crane,31.3974,-102.3501,28.53,15,1,5.65,US,1716096476
145,perevolotskiy,51.8763,54.1938,9.3,77,86,5.79,RU,1716096592
146,viedma,-40.8135,-62.9967,6.17,69,5,4.38,AR,1716096321
147,lompoc,34.6391,-120.4579,14.08,88,100,1.61,US,1716096468
148,udachny,66.4167,112.4,-0.86,64,65,2.99,RU,1716096592
149,nan,18.8333,100.6667,33.01,59,40,2.57,TH,1716096592
150,rio preto da eva,-2.6994,-59.6997,23.19,98,72,0.37,BR,1716096592
151,plettenberg bay,-34.0527,23.3716,15.92,58,53,2.24,ZA,1716096592
152,knysna,-34.0363,23.0471,15.69,61,59,2.08,ZA,1716096593
153,pacific grove,36.6177,-121.9166,13.82,85,100,4.47,US,1716096593
154,saipan,15.1355,145.701,33.39,55,40,9.26,MP,1716096593
155,condom,43.9167,0.3333,13.49,92,83,0.6,FR,1716096593
156,haiku-pauwela,20.9219,-156.3051,23.91,84,40,9.26,US,1716096593
157,port alfred,-33.5906,26.891,16.18,79,3,3.31,ZA,1716096593
158,marka,1.7159,44.7717,28.76,77,5,8.06,SO,1716096594
159,sechura,-5.5569,-80.8222,20.28,81,32,6.73,PE,1716096594
160,troitsko-pechorsk,62.7084,56.1964,4.27,67,100,2.68,RU,1716096594
161,lospalos,-8.5186,127.0025,25.65,67,37,5.32,TL,1716096594
162,tazacorte,28.629,-17.9293,17.54,84,40,3.58,ES,1716096594
163,punta arenas,-53.15,-70.9167,2.06,93,75,4.12,CL,1716096595
164,puerto baquerizo moreno,-0.9,-89.6,22.51,92,7,3.75,EC,1716096358
165,guanica,17.9716,-66.908,27.99,84,0,4.01,PR,1716096595
166,saudarkrokur,65.7461,-19.6394,0.11,73,82,1.61,IS,1716096595
167,kodiak,57.79,-152.4072,6.73,93,100,4.12,US,1716096595
168,suva,-18.1416,178.4415,28.71,84,75,3.6,FJ,1716096595
169,guarapari,-20.6667,-40.4975,22.72,73,22,2.48,BR,1716096595
170,quepos,9.4236,-84.1652,27.36,84,89,1.92,CR,1716096596
171,remire-montjoly,4.9167,-52.2667,25.02,100,75,1.54,GF,1716096596
172,bairnsdale,-37.8333,147.6167,14.47,83,83,0.45,AU,1716096596
173,bah,26.87,78.5975,44.09,9,2,2.11,IN,1716096596
174,zyryanovsk,49.7386,84.2719,18.05,52,100,0.51,KZ,1716096596
175,kogalym,62.2654,74.4791,0.55,63,96,4.02,RU,1716096597
176,al jawf,29.5,38.75,26.77,22,0,3.86,SA,1716096597
177,punta alta,-38.8759,-62.0736,9.42,59,100,3.29,AR,1716096597
178,khandyga,62.6667,135.6,7.82,33,94,2.74,RU,1716096597
179,hamilton,39.1834,-84.5333,19.47,88,0,2.06,US,1716096597
180,badger,64.8,-147.5333,17.77,37,40,4.12,US,1716096597
181,buldan,38.045,28.8306,20.47,55,100,1.49,TR,1716096598
182,fort bragg,35.139,-79.006,19.9,94,100,0.89,US,1716096598
183,acarau,-2.8856,-40.12,24.52,90,41,3.42,BR,1716096598
184,pleiku,13.9833,108.0,31.16,51,90,4.43,VN,1716096598
185,lloydminster,53.2835,-110.0016,4.12,81,100,3.09,CA,1716096598
186,happy valley-goose bay,53.3168,-60.3315,5.17,93,100,3.09,CA,1716096599
187,tokar,18.4254,37.729,30.4,54,22,3.91,SD,1716096599
188,mwinilunga,-11.7358,24.4293,11.59,75,1,1.99,ZM,1716096599
189,taltal,-25.4,-70.4833,17.6,59,0,0.89,CL,1716096599
190,bredasdorp,-34.5322,20.0403,13.29,83,80,1.91,ZA,1716096599
191,namibe,-15.1961,12.1522,23.75,58,33,0.99,AO,1716096599
192,minas de marcona,-15.2119,-75.1103,12.97,94,91,5.72,PE,1716096599
193,derazhnya,49.2692,27.4338,13.47,77,14,3.76,UA,1716096600
194,tromso,69.6496,18.957,3.01,87,75,3.6,NO,1716096600
195,krasnyy chikoy,50.3643,108.7512,22.9,21,98,4.81,RU,1716096600
196,pujili,-0.95,-78.6833,11.94,93,75,2.57,EC,1716096600
197,cartagena del chaira,1.3349,-74.8429,22.33,99,100,1.06,CO,1716096600
198,puerto aysen,-45.4,-72.7,4.82,96,83,0.88,CL,1716096600
199,kununurra,-15.7667,128.7333,30.99,29,2,6.69,AU,1716096601
200,san felipe,10.3399,-68.7425,22.49,98,100,0.02,VE,1716096601
201,north bend,43.4065,-124.2243,9.95,87,0,4.12,US,1716096601
202,ust'-ilimsk,58.0006,102.6619,16.91,41,92,4.02,RU,1716096601
203,holualoa,19.6228,-155.9522,23.91,95,100,7.2,US,1716096601
204,hithadhoo,-0.6,73.0833,28.07,75,100,13.3,MV,1716096602
205,ebon,4.582,168.6964,28.87,80,25,5.96,MH,1716096602
206,qamdo,31.1667,97.2333,13.84,21,29,3.05,CN,1716096603
207,tralee,52.2704,-9.7026,10.29,92,41,0.92,IE,1716096603
208,grand falls-windsor,48.9332,-55.6649,2.5,88,100,0.89,CA,1716096604
209,oroqen zizhiqi,50.5667,123.7167,20.49,15,34,3.08,CN,1716096604
210,smidovich,48.6,133.8167,18.49,19,92,6.03,RU,1716096604
211,zelenogorsk,56.1147,94.5861,23.22,30,85,3.46,RU,1716096604
212,qarazhal,48.0078,70.7903,13.03,77,100,7.86,KZ,1716096604
213,keflavik,64.0049,-22.5624,5.95,81,75,3.6,IS,1716096604
214,biu,10.6129,12.1946,24.79,70,26,2.96,NG,1716096605
215,nenjiang,49.1833,125.2167,19.21,19,55,3.58,CN,1716096605
216,hirara,24.8,125.2833,28.92,83,75,6.69,JP,1716096605
217,hami,42.8,93.45,35.99,10,1,3.73,CN,1716096605
218,inari,68.906,27.0288,4.11,100,100,2.21,FI,1716096605
219,hadibu,12.65,54.0333,30.27,69,100,0.23,YE,1716096605
220,tiksi,71.6872,128.8694,-3.81,76,33,6.88,RU,1716096606
221,tubarjal,30.4999,38.216,28.44,19,0,4.34,SA,1716096606
222,salahonda,2.1019,-78.7217,26.38,88,100,3.53,CO,1716096606
223,kapa'a,22.0752,-159.319,26.99,89,75,6.17,US,1716096606
224,paso de los toros,-32.8167,-56.5167,4.77,87,81,2.53,UY,1716096606
225,vila velha,-20.3297,-40.2925,22.75,94,0,0.45,BR,1716096606
226,penza,53.2007,45.0046,11.81,59,8,2.68,RU,1716096606
227,sola,-13.8833,167.55,27.97,76,31,1.19,VU,1716096607
228,coquimbo,-29.9533,-71.3436,11.1,50,0,4.12,CL,1716096607
229,bom conselho,-9.1697,-36.6797,20.6,98,79,1.49,BR,1716096607
230,utrik,11.2278,169.8474,27.3,79,89,10.09,MH,1716096607
231,harstad,68.799,16.5293,4.58,97,100,3.13,NO,1716096607
232,porto velho,-8.7619,-63.9039,25.03,94,75,0.51,BR,1716096607
233,st. john's,47.5649,-52.7093,2.66,94,75,3.6,CA,1716096608
234,wynyard,-41.0,145.7167,13.61,61,26,4.94,AU,1716096608
235,connell,46.6635,-118.8611,12.25,58,99,6.05,US,1716096608
236,basoko,1.2391,23.616,24.1,88,65,1.87,CD,1716096608
237,guayaramerin,-10.8368,-65.3614,23.77,83,100,0.8,BO,1716096608
238,fisterra,42.9049,-9.2629,13.19,85,11,4.46,ES,1716096608
239,brookings,44.3114,-96.7984,13.99,54,0,0.0,US,1716096608
240,tobelo,1.7284,128.0095,29.03,76,64,1.55,ID,1716096609
241,leh,34.1667,77.5833,9.02,42,29,2.66,IN,1716096609
242,rabaul,-4.1967,152.1721,28.61,76,77,2.97,PG,1716096609
243,iskateley,67.6803,53.1512,1.68,92,100,9.39,RU,1716096609
244,selfoss,63.9331,-20.9971,4.47,75,100,2.17,IS,1716096609
245,acapulco de juarez,16.8634,-99.8901,27.9,78,75,1.54,MX,1716096469
246,cockburn town,21.4612,-71.1419,26.58,85,1,5.96,TC,1716096609
247,ciudad bolivar,8.1222,-63.5497,25.98,84,100,2.47,VE,1716096610
248,touros,-5.1989,-35.4608,24.48,91,22,2.45,BR,1716096610
249,kidal,18.4411,1.4078,32.22,24,12,4.53,ML,1716096610
250,usinsk,65.9939,57.5281,4.28,100,100,9.33,RU,1716096610
251,kiunga,-6.1219,141.2906,28.3,79,100,1.13,PG,1716096610
252,sitia,35.2,26.0986,22.77,36,92,4.86,GR,1716096610
253,mont-laurier,46.5501,-75.4993,11.79,97,21,1.32,CA,1716096611
254,kavaratti,10.5669,72.642,29.37,78,100,7.6,IN,1716096611
255,magadan,59.5667,150.8,11.96,63,100,13.32,RU,1716096611
256,mahina,-17.5065,-149.489,25.87,73,75,2.06,PF,1716096611
257,bathsheba,13.2167,-59.5167,28.34,83,20,8.23,BB,1716096611
258,esquipulas,14.5667,-89.35,21.52,86,99,1.12,GT,1716096611
259,novodvinsk,64.4165,40.8122,16.86,66,58,5.49,RU,1716096611
260,charcas,23.1333,-101.1167,18.69,72,4,3.24,MX,1716096612
261,ingeniero jacobacci,-41.3427,-69.5448,1.88,79,0,2.04,AR,1716096612
262,uliastay,47.7417,96.8444,22.38,21,20,6.4,MN,1716096612
263,port-vila,-17.7338,168.3219,28.78,84,75,1.03,VU,1716096612
264,chibougamau,49.9168,-74.3659,12.79,100,75,3.09,CA,1716096612
265,oamaru,-45.0784,170.9801,6.88,90,100,1.58,NZ,1716096612
266,tonosho,34.4833,134.1833,19.9,88,100,8.62,JP,1716096613
267,westport,41.1415,-73.3579,15.34,86,20,2.57,US,1716096571
268,conduaga,8.862,117.4893,32.61,57,52,3.45,PH,1716096613
269,scottburgh,-30.2867,30.7532,18.54,78,0,2.57,ZA,1716096613
270,bollnas,61.3482,16.3946,18.77,36,20,3.96,SE,1716096613
271,ingraj bazar,25.0,88.15,40.44,21,18,3.85,IN,1716096614
272,alto araguaia,-17.3147,-53.2153,17.5,70,1,1.08,BR,1716096614
273,dakhla,23.6848,-15.958,18.01,88,0,8.75,EH,1716096614
274,ternate,0.8,127.4,29.75,70,74,1.92,ID,1716096614
275,petropavlovsk-kamchatsky,53.0452,158.6483,5.25,93,100,7.0,RU,1716096615
276,daru,-9.0763,143.2092,26.45,88,81,7.45,PG,1716096615
277,pasuquin,18.3328,120.6177,29.97,79,100,2.57,PH,1716096615
278,flin flon,54.7682,-101.865,5.7,97,100,2.78,CA,1716096615
279,inozemtsevo,44.0926,43.0911,12.92,67,79,1.0,RU,1716096615
280,taro,-8.3862,115.28,27.0,67,94,2.02,ID,1716096616
281,portland,45.5234,-122.6762,10.71,77,48,0.89,US,1716096548
282,porbandar,21.6422,69.6093,35.99,44,2,5.14,IN,1716096414
283,bang saphan,11.2126,99.5117,33.65,55,88,2.77,TH,1716096616
284,aasiaat,68.7098,-52.8699,-9.76,96,44,2.45,GL,1716096616
285,sabzevar,36.2126,57.6819,16.6,42,40,5.14,IR,1716096616
286,orcopampa,-15.2661,-72.3417,7.58,76,6,1.5,PE,1716096617
287,nemuro,43.3236,145.575,9.22,81,29,5.19,JP,1716096617
288,kavieng,-2.5744,150.7967,28.91,76,81,2.06,PG,1716096617
289,compostela,7.6731,126.0889,37.81,31,55,2.45,PH,1716096617
290,tha yang,12.9577,99.9055,36.0,52,100,3.2,TH,1716096617
291,bardai,11.65,7.2333,24.56,25,68,3.03,NG,1716096618
292,bikapur,26.6,82.1333,44.82,11,2,1.63,IN,1716096618
293,narrabri,-30.3167,149.7833,18.62,49,1,0.89,AU,1716096618
294,jabat,7.75,168.9751,27.55,86,99,9.31,MH,1716096618
295,santana,-0.0583,-51.1817,25.1,100,75,1.03,BR,1716096619
296,konarka,19.9,86.1167,36.76,60,67,6.7,IN,1716096619
297,lerwick,60.1545,-1.1494,10.0,89,100,3.03,GB,1716096619
298,northam,51.0333,-4.2167,13.14,97,19,2.65,GB,1716096619
299,kuanda,56.3161,116.0806,13.79,40,90,1.73,RU,1716096619
300,vernon,50.2581,-119.2691,8.85,71,52,0.0,CA,1716096619
301,penistone,53.5257,-1.6303,10.65,80,0,2.45,GB,1716096620
302,debre tabor,11.85,38.0167,14.51,77,99,1.6,ET,1716096620
303,hotan,37.0997,79.9269,31.4,14,21,4.18,CN,1716096620
304,kristiansund,63.1115,7.732,9.03,93,75,4.63,NO,1716096620
305,east ballina,-28.8667,153.5833,20.44,60,99,9.02,AU,1716096620
306,makassar,-5.14,119.4221,33.03,62,20,2.57,ID,1716096620
307,hinis,39.3606,41.7022,14.38,51,22,2.57,TR,1716096621
308,kapuskasing,49.4169,-82.4331,20.0,60,75,4.63,CA,1716096621
309,orkney,-26.9802,26.6727,15.08,32,0,1.64,ZA,1716096621
310,rio grande,-32.035,-52.0986,9.97,87,97,4.28,BR,1716096621
311,ts'q'alt'ubo,42.3413,42.5976,16.36,49,88,2.34,GE,1716096621
312,omerli,37.4022,40.9541,17.24,51,7,1.55,TR,1716096621
313,mount pleasant,32.7941,-79.8626,23.33,95,100,2.06,US,1716096622
314,tumpat,6.1978,102.171,36.76,66,40,4.12,MY,1716096622
315,ksar chellala,35.2122,2.3189,14.53,55,5,3.62,DZ,1716096622
316,campbellsville,37.3434,-85.3419,18.06,95,0,1.87,US,1716096622
317,brokopondo,4.75,-55.1667,24.59,93,99,3.73,SR,1716096622
318,gereida,11.2811,25.1414,32.67,11,58,1.09,SD,1716096622
319,fort mcmurray,56.7268,-111.381,5.77,100,100,1.03,CA,1716096622
320,salinas,36.6777,-121.6555,14.23,85,100,2.57,US,1716096623
321,arti,56.4234,58.5328,8.55,45,12,5.45,RU,1716096623
322,nar'yan-mar,67.6713,53.087,1.73,92,100,9.39,RU,1716096623
323,chotebor,49.7207,15.6702,12.86,88,100,0.91,CZ,1716096623
324,mao,39.8885,4.2658,17.31,100,20,2.57,ES,1716096623
325,castillos,-34.1667,-53.8333,10.17,80,100,0.96,UY,1716096624
326,lebu,-37.6167,-73.65,7.44,85,74,3.77,CL,1716096624
327,weno,7.4515,151.8468,30.97,84,100,3.09,FM,1716096624
328,tago,9.0211,126.2317,30.54,65,77,4.24,PH,1716096624
329,kerikeri,-35.2268,173.9474,17.17,79,62,0.89,NZ,1716096624
330,bakanas,44.8081,76.2772,27.28,31,49,4.48,KZ,1716096624
331,yarovoye,52.9273,78.58,14.17,90,100,3.78,RU,1716096625
332,noosa heads,-26.3833,153.15,22.28,53,0,7.22,AU,1716096426
333,arauco,-37.2463,-73.3175,7.07,85,23,1.83,CL,1716096625
334,baardheere,2.3446,42.2764,29.18,63,51,8.22,SO,1716096625
335,leninskoye,41.7589,69.3864,13.24,86,100,0.97,KZ,1716096625
336,robertsport,6.7533,-11.3686,27.07,85,83,2.81,LR,1716096625
337,dedovichi,57.5517,29.9502,17.32,62,0,3.78,RU,1716096625
338,tolanaro,-25.0319,46.9987,21.04,94,75,3.09,MG,1716096626
339,severo-yeniseyskiy,60.3725,93.0408,5.88,73,76,2.68,RU,1716096626
340,port hedland,-20.3167,118.5667,31.03,16,0,7.2,AU,1716096626
341,praia da vitoria,38.7333,-27.0667,15.98,82,75,1.15,PT,1716096626
342,horta,38.5333,-28.6333,15.01,82,85,1.79,PT,1716096538
343,yaren,-0.5472,166.916,28.99,80,85,5.58,NR,1716096626
344,camarinas,43.1311,-9.1817,13.29,88,13,3.93,ES,1716096626
345,trairi,-3.2778,-39.2689,22.89,96,25,2.27,BR,1716096627
346,bikenibeu village,1.3673,173.1241,30.98,74,20,2.57,KI,1716096627
347,kourou,5.1552,-52.6478,25.03,96,100,1.86,GF,1716096627
348,pakokku,21.3333,95.1,39.88,29,7,2.43,MM,1716096627
349,gisborne,-38.6533,178.0042,13.54,82,99,3.0,NZ,1716096627
350,klaksvik,62.2266,-6.589,6.51,68,100,5.29,FO,1716096627
351,kayyerkan,69.3786,87.7439,-8.72,95,100,3.95,RU,1716096628
352,pangody,65.85,74.4859,-3.25,77,80,3.2,RU,1716096628
353,watertown,42.3709,-71.1828,13.33,90,100,6.17,US,1716096628
354,saldanha,-33.0117,17.9442,8.03,82,57,1.0,ZA,1716096628
355,vyatskiye polyany,56.226,51.0656,11.22,46,5,3.78,RU,1716096628
356,buedu,8.2803,-10.3719,22.21,99,100,0.42,SL,1716096628
357,saint-pierre,-21.3393,55.4781,26.82,44,0,1.54,RE,1716096628
358,karatau,43.1667,70.4667,19.63,53,94,9.26,KZ,1716096629
359,stanthorpe,-28.6667,151.95,15.23,61,3,2.65,AU,1716096629
360,mirnyy,62.5353,113.9611,5.69,39,86,1.34,RU,1716096629
361,howrah,22.5892,88.3103,34.0,66,75,2.57,IN,1716096629
362,al hadd,26.2456,50.6542,30.99,40,0,6.69,BH,1716096629
363,katsuren-haebaru,26.3369,127.8719,28.43,67,40,8.75,JP,1716096629
364,garoowe,8.4054,48.4845,28.49,59,100,6.21,SO,1716096630
365,al kharijah,25.4514,30.5464,33.64,14,1,7.58,EG,1716096630
366,turinsk,58.0458,63.696,7.96,45,6,4.97,RU,1716096630
367,palangkaraya,-2.2,113.8333,31.31,62,93,0.95,ID,1716096630
368,mega,4.05,38.3,18.69,76,56,5.28,ET,1716096630
369,urengoy,65.9667,78.3667,-4.35,78,77,4.27,RU,1716096630
370,hasaki,35.7333,140.8333,24.05,69,100,3.87,JP,1716096630
371,balykchy,42.4557,76.1861,16.12,68,96,3.15,KG,1716096631
372,gafsa,34.425,8.7842,23.12,60,20,6.17,TN,1716096631
373,bodo,67.28,14.405,6.54,90,75,9.26,NO,1716096631
374,luderitz,-26.6481,15.1594,19.94,46,34,2.51,NA,1716096631
375,santa cruz,-17.8,-63.1667,14.7,82,100,8.23,BO,1716096631
376,emet,39.343,29.2585,21.09,58,100,2.1,TR,1716096631
377,karratha,-20.7377,116.8463,29.47,23,0,8.24,AU,1716096632
378,ridgecrest,35.6225,-117.6709,25.92,38,0,8.05,US,1716096632
379,vila franca do campo,37.7167,-25.4333,18.27,99,94,1.17,PT,1716096632
380,llano bonito,7.9667,-80.4333,27.38,84,94,3.13,PA,1716096632
381,iwanai,42.9744,140.5089,19.85,35,61,2.08,JP,1716096632
382,marsh harbour,26.5412,-77.0636,27.02,81,100,6.01,BS,1716096632
383,manzini,-26.25,31.5,17.19,76,38,0.4,SZ,1716096633
384,bubaque,11.2833,-15.8333,26.84,70,88,6.52,GW,1716096633
385,campina grande do sul,-25.3056,-49.0553,13.06,99,100,1.57,BR,1716096633
386,fomboni,-12.28,43.7425,28.11,78,66,8.44,KM,1716096633
387,tshabong,-26.05,22.45,17.31,31,0,3.61,BW,1716096633
388,cidreira,-30.1811,-50.2056,13.9,89,100,2.85,BR,1716096633
389,puerto leguizamo,-0.1934,-74.7819,22.63,99,100,1.13,CO,1716096634
390,choyr,46.3611,108.3611,19.4,23,34,6.45,MN,1716096634
391,gorontalo,0.5412,123.0595,31.33,63,72,4.06,ID,1716096634
392,kingston,17.997,-76.7936,28.53,74,20,2.06,JM,1716096634
393,paracuru,-3.41,-39.0306,26.17,93,15,2.68,BR,1716096634
394,swift current,50.2834,-107.8014,5.45,70,0,4.12,CA,1716096634
395,khovd,48.0056,91.6419,27.6,6,68,1.96,MN,1716096635
396,dedza,-14.3779,34.3332,14.15,83,71,2.7,MW,1716096635
397,nago,26.5881,127.9761,28.47,80,80,6.21,JP,1716096635
398,trinidad,-14.8333,-64.9,19.77,76,93,3.15,BO,1716096635
399,mirny,62.5353,113.9611,5.69,39,86,1.34,RU,1716096635
400,west lafayette,40.4259,-86.9081,21.12,82,8,2.67,US,1716096635
401,bria,6.5423,21.9863,22.48,96,100,1.75,CF,1716096635
402,benguela,-12.5763,13.4055,24.17,43,58,2.65,AO,1716096636
403,mount pearl,47.5166,-52.7813,2.2,94,75,3.6,CA,1716096546
404,valparaiso,-33.0393,-71.6273,11.75,87,0,2.06,CL,1716096636
405,rabigh,22.7986,39.0349,33.14,46,0,3.07,SA,1716096636
406,chinhoyi,-17.3667,30.2,17.32,39,0,3.02,ZW,1716096636
407,shimoda,34.6667,138.95,19.2,79,100,2.13,JP,1716096637
408,kargasok,59.0556,80.8572,3.87,82,99,3.58,RU,1716096637
409,tannum sands,-23.9504,151.3693,24.3,40,0,3.09,AU,1716096637
410,vorgashor,67.5833,63.95,-3.44,96,100,7.05,RU,1716096637
411,cabo san lucas,22.8909,-109.9124,24.78,56,0,3.68,MX,1716096628
412,suez,29.9737,32.5263,29.87,23,27,3.17,EG,1716096637
413,kelso,46.1468,-122.9084,9.92,71,0,1.54,US,1716096637
414,mahibadhoo,3.7833,72.9667,28.93,79,94,11.44,MV,1716096638
415,quelimane,-17.8786,36.8883,21.97,94,40,2.66,MZ,1716096638
416,laguna,38.421,-121.4238,17.32,81,0,5.14,US,1716096638
417,kulhudhuffushi,6.6221,73.07,29.66,77,100,8.99,MV,1716096638
418,muana,-1.5283,-49.2167,23.68,96,78,1.03,BR,1716096638
419,znamenskoye,57.1281,73.8282,7.93,67,99,6.56,RU,1716096638
420,moyynkum,44.2914,72.9469,20.9,53,41,11.85,KZ,1716096639
421,san andres,12.5847,-81.7006,29.01,79,20,4.12,CO,1716096639
422,plastun,44.7561,136.2939,16.46,38,93,2.61,RU,1716096639
423,sfax,34.7406,10.7603,23.08,83,20,4.63,TN,1716096639
424,kibre mengist,5.8833,38.9833,18.27,92,80,0.21,ET,1716096639
425,tosontsengel,48.7567,98.2839,22.55,14,49,4.59,MN,1716096639
426,parabel',58.6978,81.4825,2.73,95,88,5.36,RU,1716096640
427,kismayo,-0.3582,42.5454,29.21,71,97,8.0,SO,1716096640
428,grabo,57.8363,12.2995,14.55,70,0,2.06,SE,1716096640
429,howard springs,-12.497,131.047,32.21,49,2,4.1,AU,1716096640
430,kota belud,6.351,116.4305,30.27,75,51,2.35,MY,1716096640
431,svetlyy,54.675,20.1347,15.2,68,2,3.57,RU,1716096640
432,belyy yar,53.6039,91.3903,19.94,37,0,2.0,RU,1716096640
433,sitka,57.0531,-135.33,8.94,61,75,6.17,US,1716096641
434,plouzane,48.3833,-4.6167,13.18,100,100,1.54,FR,1716096641
435,kwang binh,17.4833,106.6,36.01,49,100,2.58,VN,1716096641
436,muleba,-1.8397,31.6544,22.12,69,48,2.63,TZ,1716096641
437,karonga,-9.9333,33.9333,23.18,71,71,0.52,MW,1716096641
438,bonthe,7.5264,-12.505,26.98,83,100,0.82,SL,1716096641
439,junction city,39.0286,-96.8314,21.89,64,0,1.54,US,1716096642
440,salina,38.8403,-97.6114,24.07,62,0,4.63,US,1716096642
441,gaspra,44.4333,34.1,14.06,67,58,1.85,UA,1716096642
442,polyarnyy,69.1989,33.4478,0.75,100,100,3.15,RU,1716096642
443,sayat,38.7839,63.8803,16.93,35,75,4.17,TM,1716096642
444,prince albert,53.2001,-105.7677,5.39,84,100,3.09,CA,1716096642
445,i-n-salah,27.1935,2.4607,28.74,15,3,2.3,DZ,1716096643
446,teknaf,20.8624,92.3058,32.37,64,52,5.3,BD,1716096643
447,piranshahr,36.701,45.1413,16.78,46,2,1.84,IR,1716096643
448,san luis de la loma,17.2706,-100.8939,27.23,77,4,0.43,MX,1716096643
449,fort st. john,56.2499,-120.8529,6.94,76,75,4.12,CA,1716096458
450,new norfolk,-42.7826,147.0587,14.28,61,59,1.25,AU,1716096643
451,carutapera,-1.195,-46.02,23.85,95,29,1.63,BR,1716096644
452,padre paraiso,-17.0742,-41.4844,15.62,97,16,0.31,BR,1716096644
453,nishinoomote,30.7333,131.0,22.31,83,75,5.14,JP,1716096644
454,bangar,16.8936,120.4243,30.93,68,83,2.78,PH,1716096644
455,sitangkai,4.6628,119.3928,29.72,65,34,2.12,PH,1716096644
456,yeppoon,-23.1333,150.7333,26.81,52,0,3.44,AU,1716096644
457,macapa,0.0389,-51.0664,24.99,100,75,1.03,BR,1716096645
458,nola,40.922,14.5329,20.35,98,97,0.53,IT,1716096645
459,sorong,-0.8833,131.25,28.11,86,100,5.29,ID,1716096645
460,knyaze-volkonskoye,48.4642,135.4567,18.19,24,81,7.15,RU,1716096645
461,mount gambier,-37.8333,140.7667,13.85,79,94,5.02,AU,1716096628
462,kharan,28.5833,65.4167,34.66,20,1,0.84,PK,1716096645
463,ixtapa,20.7,-105.2,24.57,83,0,1.03,MX,1716096645
464,benghazi,32.1167,20.0667,27.52,37,42,4.77,LY,1716096646
465,puerto armuelles,8.2833,-82.8667,28.94,72,80,2.24,PA,1716096646
466,ataq,14.5377,46.8319,29.36,35,7,3.86,YE,1716096646
467,opuwo,-18.0607,13.84,13.33,30,0,3.36,NA,1716096646
468,amursk,50.2261,136.8994,16.1,16,0,8.38,RU,1716096646
469,pervomayskoye,43.919,46.7102,18.75,43,5,1.94,RU,1716096646
470,khilok,51.3674,110.4676,20.54,19,76,4.44,RU,1716096646
471,petrovsk-zabaykal'skiy,51.273,108.843,21.41,24,68,5.11,RU,1716096647
472,nizhneangarsk,55.7833,109.55,3.89,66,72,0.45,RU,1716096647
473,aykhal,66.0,111.5,-1.84,71,43,3.41,RU,1716096647
474,menongue,-14.6585,17.691,11.83,46,1,1.65,AO,1716096647
475,rio verde de mato grosso,-18.9181,-54.8442,19.37,85,27,2.01,BR,1716096648
476,cassilandia,-19.1133,-51.7342,19.94,54,2,1.69,BR,1716096648
477,colonia,50.9333,6.95,14.41,91,75,0.51,DE,1716096648
478,alice springs,-23.7,133.8833,18.75,24,0,7.72,AU,1716096648
479,myeik,12.4333,98.6,32.08,62,98,1.93,MM,1716096648
480,terrace,54.5163,-128.6035,10.95,57,75,2.06,CA,1716096648
481,jiazi,22.8779,116.067,22.5,91,100,7.76,CN,1716096648
482,cozumel,20.5083,-86.9458,29.04,79,40,3.09,MX,1716096496
483,dudinka,69.4058,86.1778,-8.51,91,63,3.58,RU,1716096649
484,krasnoyarsk,56.0097,92.7917,24.34,29,92,3.92,RU,1716096649
485,kachia,9.8667,7.95,23.0,87,93,1.56,NG,1716096649
486,yuzhno-kurilsk,44.0306,145.8556,14.65,51,39,6.42,RU,1716096649
487,kudahuvadhoo,2.6708,72.8944,29.08,79,99,11.56,MV,1716096649
488,hammerfest,70.6634,23.6821,1.25,86,100,2.06,NO,1716096649
489,port blair,11.6667,92.75,27.02,89,100,1.54,IN,1716096384
490,soledade,-28.8183,-52.5103,9.24,94,100,2.83,BR,1716096650
491,mhamid,29.82,-5.72,18.7,42,19,5.15,MA,1716096650
492,kisi,9.0833,3.85,24.96,89,72,3.45,NG,1716096650
493,ambodifotatra,-16.9833,49.85,25.97,77,99,5.33,MG,1716096650
494,ofunato,39.0717,141.7167,21.36,51,100,2.95,JP,1716096650
495,susuman,62.7833,148.1667,12.77,57,100,5.36,RU,1716096650
496,bamboo flat,11.7,92.7167,27.05,89,100,1.54,IN,1716096651
497,polski trambesh,43.3836,25.6497,15.3,89,100,0.85,BG,1716096651
498,pingxiang,27.6167,113.85,22.06,95,100,0.66,CN,1716096651
499,sao miguel do araguaia,-13.275,-50.1628,21.67,54,0,1.11,BR,1716096651
500,kuta,-8.7233,115.1723,30.97,66,40,6.17,ID,1716096651
501,la punta,-33.1837,-66.3127,6.51,64,6,5.09,AR,1716096651
502,komsomolets,53.7453,62.0708,8.09,62,100,9.93,KZ,1716096652
503,hecun,36.5333,114.1111,36.68,19,97,4.39,CN,1716096652
504,dalandzadgad,43.5708,104.425,21.43,16,100,4.89,MN,1716096652
505,charters towers,-20.1,146.2667,23.4,17,96,6.43,AU,1716096526
506,margate,51.3813,1.3862,12.17,91,16,1.34,GB,1716096652
507,brigantine,39.4101,-74.3646,14.0,97,99,1.79,US,1716096653
508,martapura,-3.4167,114.85,31.05,70,40,2.57,ID,1716096653
509,seneca,41.1167,-83.1166,16.65,93,2,1.63,US,1716096653
510,sidi ifni,29.3797,-10.173,15.69,84,43,4.4,MA,1716096653
511,el calafate,-50.3408,-72.2768,2.15,77,32,1.33,AR,1716096653
512,birjand,32.8663,59.2211,24.26,23,75,6.17,IR,1716096653
513,beloslav,43.1833,27.7,15.06,88,75,2.57,BG,1716096653
514,tame,6.461,-71.73,21.93,90,100,0.77,CO,1716096654
515,nguigmi,14.2495,13.1092,27.75,14,17,4.35,NE,1716096654
516,nelson bay,-32.7167,152.15,18.89,67,87,1.34,AU,1716096654
517,belmonte,-15.8631,-38.8828,23.83,72,55,1.36,BR,1716096654
518,illizi,26.4833,8.4667,30.89,24,77,0.74,DZ,1716096654
519,akureyri,65.6835,-18.0878,0.96,64,100,2.06,IS,1716096654
520,rasshevatskaya,45.5748,41.035,15.87,60,47,2.74,RU,1716096655
521,tamanrasset,22.785,5.5228,26.95,21,40,2.06,DZ,1716096655
522,cam ranh,11.9214,109.1591,32.98,58,20,3.6,VN,1716096655
523,flying fish cove,-10.4217,105.6791,27.82,78,100,5.66,CX,1716096655
524,morehead city,34.7229,-76.726,21.0,87,100,3.09,US,1716096655
525,effingham,32.3669,-81.3332,21.97,97,97,1.95,US,1716096655
526,krasnokamensk,50.0979,118.0369,20.16,19,100,6.79,RU,1716096655
527,tataouine,32.9297,10.4518,30.63,29,49,6.93,TN,1716096656
528,kruisfontein,-34.0033,24.7314,15.29,56,28,2.86,ZA,1716096656
529,yanam,16.7333,82.2167,36.43,45,68,2.62,IN,1716096656
530,merizo village,13.2658,144.6691,31.31,82,96,8.01,GU,1716096656
531,riverton,40.5219,-111.9391,20.58,44,0,4.92,US,1716096656
532,lobujya,27.95,86.8167,0.35,77,56,2.14,NP,1716096656
533,okha,53.5739,142.9478,3.47,90,100,4.02,RU,1716096656
534,envira,-7.3,-70.2167,22.76,95,84,0.55,BR,1716096657
535,arvi,20.9833,78.2333,37.42,30,4,2.02,IN,1716096657
536,lazaro cardenas,17.9583,-102.2,25.27,84,36,1.02,MX,1716096657
537,san juan de miraflores,-12.1629,-76.9635,18.98,84,90,2.16,PE,1716096657
538,villa el carmen,11.9801,-86.5057,28.65,76,21,3.81,NI,1716096657
539,axim,4.8699,-2.2405,26.78,88,67,3.11,GH,1716096657
540,muisne,0.6,-80.0333,25.37,88,100,2.97,EC,1716096658
541,tafuna,-14.3358,-170.72,28.97,84,40,5.66,AS,1716096658
542,bhindar,24.5,74.1833,40.14,10,11,5.08,IN,1716096658
543,alaghsas,17.0187,8.0168,28.94,14,84,2.06,NE,1716096658
544,arno,60.1167,18.6333,9.88,54,7,4.33,SE,1716096658
545,jiquipilas,16.6667,-93.65,24.46,88,100,1.08,MX,1716096658
546,yokadouma,3.5167,15.05,21.59,99,100,0.99,CM,1716096658
